City_ID,City,Country,Lat,Lng,Max Temp,Humidity,Cloudiness,Wind Speed,Current Description
0,Bredasdorp,ZA,-34.53,20.04,44.6,81,16,8.05,few clouds
1,Dikson,RU,73.51,80.55,41.88,97,100,15.21,overcast clouds
2,Hutchinson,US,38.06,-97.93,89.01,45,75,8.05,broken clouds
3,Victoria,HK,22.29,114.16,82.0,83,50,1.5,light rain
4,Constitucion,CL,-35.33,-72.42,52.45,68,0,13.69,clear sky
5,Bonavista,CA,48.65,-53.11,57.0,79,97,16.58,overcast clouds
6,Butaritari,KI,3.07,172.79,83.01,71,17,11.59,few clouds
7,Namatanai,PG,-3.67,152.43,82.31,78,34,9.04,light rain
8,Bilibino,RU,68.05,166.44,42.98,68,100,5.21,overcast clouds
9,Bluff,NZ,-46.6,168.33,54.19,62,53,22.64,broken clouds
10,Mayo,US,38.89,-76.51,81.0,47,20,8.05,few clouds
11,Rikitea,PF,-23.12,-134.97,69.1,83,21,18.97,light rain
12,Barrow,US,71.29,-156.79,39.2,86,90,16.11,overcast clouds
13,Tuktoyaktuk,CA,69.45,-133.04,42.8,87,90,16.11,overcast clouds
14,Ushuaia,AR,-54.8,-68.3,28.4,92,75,26.4,snow
15,Hermanus,ZA,-34.42,19.23,39.0,88,3,12.44,clear sky
16,Hobart,AU,-42.88,147.33,46.0,56,20,12.75,few clouds
17,Nikolskoye,RU,59.7,30.79,59.0,87,96,4.47,overcast clouds
18,Almeirim,BR,-1.52,-52.58,82.96,65,42,4.88,scattered clouds
19,Angoche,MZ,-16.23,39.91,72.21,76,2,11.14,clear sky
20,Saskylakh,RU,71.92,114.08,47.43,83,64,4.94,broken clouds
21,Cayenne,GF,4.93,-52.33,84.2,74,100,9.17,overcast clouds
22,Kudahuvadhoo,MV,2.67,72.89,83.19,69,99,6.93,overcast clouds
23,Bayir,TR,37.27,28.22,71.6,83,0,1.12,clear sky
24,Arlit,NE,18.74,7.39,87.69,43,100,2.39,overcast clouds
25,Busselton,AU,-33.65,115.33,39.0,77,0,3.69,clear sky
26,Manokwari,ID,-0.87,134.08,76.87,82,99,4.36,light rain
27,Baisha,CN,26.52,110.93,71.58,80,1,1.45,clear sky
28,Nanortalik,GL,60.14,-45.24,46.63,80,99,6.42,overcast clouds
29,Tiksi,RU,71.69,128.87,42.49,87,12,8.41,few clouds
30,Tual,ID,-5.67,132.75,79.18,87,39,14.67,scattered clouds
31,Torbay,CA,47.67,-52.73,70.0,100,90,13.87,light rain
32,Khatanga,RU,71.97,102.5,43.47,92,89,7.09,overcast clouds
33,Berlevag,NO,70.86,29.09,44.6,81,40,8.05,scattered clouds
34,Camacha,PT,33.08,-16.33,71.6,56,75,12.75,broken clouds
35,Mangan,IN,27.52,88.53,74.53,58,96,0.54,light rain
36,Lensk,RU,60.73,114.93,49.53,89,0,3.04,clear sky
37,Rosario,AR,-32.95,-60.64,59.0,24,78,4.7,broken clouds
38,Cervo,ES,43.67,-7.41,55.0,1,36,9.69,scattered clouds
39,Genhe,CN,50.78,121.52,51.67,95,100,3.36,moderate rain
40,Sur,OM,22.57,59.53,84.4,63,60,7.87,broken clouds
41,Kaitangata,NZ,-46.28,169.85,55.99,43,100,8.23,overcast clouds
42,Bengkulu,ID,-3.8,102.27,75.65,84,100,3.4,overcast clouds
43,Iqaluit,CA,63.75,-68.51,50.0,71,20,3.36,few clouds
44,Mataura,NZ,-46.19,168.86,56.41,49,47,12.39,scattered clouds
45,Beringovskiy,RU,63.05,179.32,45.63,78,100,30.02,overcast clouds
46,Barquisimeto,VE,10.07,-69.32,86.0,37,93,4.7,moderate rain
47,Cherskiy,RU,68.75,161.3,39.22,87,100,7.65,overcast clouds
48,Pristina,XK,42.67,21.17,70.0,72,0,1.45,clear sky
49,Aginskoye,RU,51.1,114.53,52.23,92,100,2.39,overcast clouds
50,Qandala,SO,11.47,49.87,90.05,49,100,1.63,overcast clouds
51,Vao,NC,-22.67,167.48,67.23,65,47,14.36,scattered clouds
52,Wageningen,NL,51.97,5.67,60.01,93,90,5.82,overcast clouds
53,Zalantun,CN,48.0,122.72,58.19,95,100,12.86,light rain
54,Hithadhoo,MV,-0.6,73.08,82.11,73,57,10.02,broken clouds
55,Codrington,AU,-38.27,141.97,47.1,78,61,10.76,broken clouds
56,Vaini,TO,-21.2,-175.2,78.8,83,75,12.75,broken clouds
57,Narsaq,GL,60.92,-46.05,51.8,53,100,5.82,overcast clouds
58,Atuona,PF,-9.8,-139.03,78.71,79,39,21.32,light rain
59,Tuatapere,NZ,-46.13,167.68,56.64,60,19,11.68,few clouds
60,Paamiut,GL,61.99,-49.67,46.08,74,46,17.05,scattered clouds
61,Klaksvik,FO,62.23,-6.59,50.0,100,99,10.29,overcast clouds
62,Itarema,BR,-2.92,-39.92,78.89,75,0,19.06,clear sky
63,Tasiilaq,GL,65.61,-37.64,51.8,40,100,19.46,overcast clouds
64,Sishui,CN,35.65,117.28,73.98,92,53,0.65,broken clouds
65,Colares,PT,38.8,-9.45,66.0,56,28,19.37,scattered clouds
66,Albany,US,42.6,-73.97,73.0,43,0,7.92,clear sky
67,Dehloran,IR,32.69,47.27,94.17,12,0,7.25,clear sky
68,Barcelona,ES,41.39,2.16,66.0,82,20,9.17,light rain
69,Pevek,RU,69.7,170.31,39.58,80,15,6.24,few clouds
70,Lebu,CL,-37.62,-73.65,49.32,72,0,24.47,clear sky
71,Buala,SB,-8.14,159.59,83.89,77,33,11.74,scattered clouds
72,Gerash,IR,27.67,54.14,84.2,20,0,5.82,clear sky
73,Toamasina,MG,-18.17,49.38,68.0,94,75,5.97,shower rain
74,Tournon-Sur-Rhone,FR,45.07,4.83,59.0,67,0,4.52,clear sky
75,Bethel,US,41.37,-73.41,75.99,41,1,10.29,clear sky
76,Jamestown,US,42.1,-79.24,69.01,59,1,8.05,clear sky
77,Codo,BR,-4.46,-43.89,84.38,37,0,2.19,clear sky
78,Mahebourg,MU,-20.41,57.7,69.8,88,40,14.99,shower rain
79,Airai,TL,-8.93,125.41,57.69,92,21,4.21,few clouds
80,Avarua,CK,-21.21,-159.78,78.8,69,32,17.22,scattered clouds
81,Hilo,US,19.73,-155.09,84.2,58,90,5.82,overcast clouds
82,Naliya,IN,23.27,68.83,79.41,88,100,15.77,moderate rain
83,Sinnamary,GF,5.38,-52.95,80.76,81,60,15.1,light rain
84,Upernavik,GL,72.79,-56.15,41.05,84,91,11.03,overcast clouds
85,Pirapemas,BR,-3.73,-44.22,83.55,40,0,1.05,clear sky
86,Qingdao,CN,36.1,120.37,80.6,88,75,11.18,moderate rain
87,Karpathos,GR,35.51,27.21,77.0,83,0,24.16,clear sky
88,Carnarvon,AU,-24.87,113.63,53.6,100,0,3.36,clear sky
89,Salcininkai,LT,54.3,25.38,57.99,100,75,11.41,heavy intensity rain
90,Hasaki,JP,35.73,140.83,77.0,94,75,9.17,broken clouds
91,Coquimbo,CL,-29.95,-71.34,59.0,67,2,14.99,clear sky
92,Skorodnoye,RU,51.07,37.23,69.8,49,0,6.71,clear sky
93,Ostrovnoy,RU,68.05,39.51,44.62,86,28,7.7,scattered clouds
94,Yellowknife,CA,62.46,-114.35,53.6,58,40,12.75,scattered clouds
95,Husavik,IS,66.04,-17.34,51.8,81,90,13.87,light intensity drizzle
96,Kurilsk,RU,45.23,147.88,52.07,75,92,6.42,overcast clouds
97,Missoula,US,47.02,-113.8,75.2,15,20,16.11,few clouds
98,Xining,CN,36.62,101.77,48.2,81,43,1.77,scattered clouds
99,Lompoc,US,34.64,-120.46,70.0,64,1,11.41,clear sky
100,Chapais,CA,49.78,-74.85,57.2,54,75,9.17,broken clouds
101,Tautira,PF,-17.73,-149.15,82.4,54,20,10.29,few clouds
102,Awbari,LY,26.59,12.78,88.25,17,0,7.47,clear sky
103,Strezhevoy,RU,60.73,77.59,59.0,93,97,4.47,overcast clouds
104,Champerico,GT,14.3,-91.92,91.4,59,40,9.17,scattered clouds
105,Inuvik,CA,68.35,-133.72,50.0,66,90,3.36,overcast clouds
106,Kavieng,PG,-2.57,150.8,83.8,75,98,14.0,overcast clouds
107,Aklavik,CA,68.22,-135.01,50.0,66,90,3.36,overcast clouds
108,Seoul,KR,37.57,126.98,77.0,78,90,4.68,overcast clouds
109,Kargasok,RU,59.06,80.86,54.64,94,97,6.64,overcast clouds
110,Mulege,MX,26.88,-111.98,90.52,53,14,10.04,few clouds
111,Qaanaaq,GL,77.48,-69.36,31.8,82,0,3.91,clear sky
112,Bathsheba,BB,13.22,-59.52,84.2,79,40,17.22,scattered clouds
113,Samarai,PG,-10.62,150.67,78.93,87,81,19.66,light rain
114,Mnogovershinnyy,RU,53.94,139.92,49.86,66,59,5.99,broken clouds
115,Komsomolskiy,UZ,40.43,71.72,73.4,49,0,6.93,clear sky
116,Pangody,RU,65.85,74.49,41.2,88,41,7.76,scattered clouds
117,Bereda,ES,43.27,-7.54,53.01,96,8,4.45,clear sky
118,Thompson,CA,55.74,-97.86,53.6,93,90,9.17,light rain
119,Zyryanka,RU,65.75,150.85,50.52,48,42,4.36,scattered clouds
120,Chokurdakh,RU,70.63,147.92,43.0,77,88,8.57,overcast clouds
121,Erzin,TR,36.96,36.2,80.01,86,0,1.01,clear sky
122,Rocha,UY,-34.48,-54.33,40.6,70,72,6.04,broken clouds
123,Castro,BR,-24.79,-50.01,65.84,63,0,3.22,clear sky
124,Krasnovishersk,RU,60.41,57.08,52.12,96,97,4.12,light rain
125,Burlington,US,39.88,-74.64,78.8,41,20,6.93,few clouds
126,Coahuayana,MX,18.73,-103.68,75.2,83,90,4.25,mist
127,Voyvozh,RU,62.89,54.96,49.32,98,100,6.51,light rain
128,Nemuro,JP,43.32,145.57,55.02,82,100,17.78,overcast clouds
129,Touros,BR,-5.2,-35.46,77.0,73,0,9.17,clear sky
130,Kaeo,NZ,-35.1,173.78,57.0,3,13,3.0,few clouds
131,Chipinge,ZW,-20.19,32.62,61.9,90,41,5.61,scattered clouds
132,Sikonge,TZ,-5.63,32.77,71.6,46,5,6.93,clear sky
133,Longyan,CN,25.11,117.02,73.56,86,0,2.53,clear sky
134,Saldanha,ZA,-33.01,17.94,41.0,80,0,2.24,clear sky
135,Jalalabad,AF,34.43,70.45,84.51,56,54,1.59,moderate rain
136,Batagay-Alyta,RU,67.8,130.41,48.22,59,99,2.37,overcast clouds
137,Kahului,US,20.89,-156.47,89.6,46,40,21.92,scattered clouds
138,Takaka,NZ,-40.85,172.8,57.0,76,18,10.0,few clouds
139,Havoysund,NO,71.0,24.66,44.6,75,20,17.22,few clouds
140,Naze,JP,28.37,129.48,84.2,83,75,16.11,broken clouds
141,Fairfield,US,41.27,-73.32,77.0,38,1,10.29,clear sky
142,Hovd,MN,48.01,91.64,52.18,59,9,0.63,clear sky
143,Pointe-Noire,CG,-4.78,11.86,73.4,83,40,9.17,scattered clouds
144,Kalmunai,LK,7.42,81.82,79.75,80,100,6.49,overcast clouds
145,Fredericksburg,US,38.3,-77.46,82.4,48,40,6.93,scattered clouds
146,Savonlinna,FI,61.87,28.88,53.6,93,100,8.05,light rain
147,Sidmouth,GB,50.69,-3.24,52.0,81,100,2.59,overcast clouds
148,Nakusp,CA,50.25,-117.8,68.0,37,37,4.0,scattered clouds
149,Dwarka,IN,22.24,68.97,81.37,83,100,19.13,moderate rain
150,Pasni,PK,25.26,63.47,80.89,87,0,16.22,clear sky
151,Farsund,NO,58.09,6.8,57.99,73,0,3.0,clear sky
152,Provideniya,RU,64.38,-173.3,53.6,66,75,17.9,broken clouds
153,Severo-Kurilsk,RU,50.68,156.12,51.46,84,20,15.84,few clouds
154,Souillac,MU,-20.52,57.52,69.8,88,40,14.99,shower rain
155,Maumere,ID,-8.62,122.21,76.28,68,1,4.81,clear sky
156,Midland,US,32.0,-102.08,102.2,15,1,11.41,clear sky
157,Gorontalo,ID,0.54,123.06,75.69,84,90,2.77,light rain
158,Jacobabad,PK,28.28,68.44,85.69,64,99,7.18,moderate rain
159,Chuy,UY,-33.7,-53.46,44.4,76,91,5.7,overcast clouds
160,Vostok,RU,46.49,135.88,49.15,80,99,4.41,overcast clouds
161,Voh,NC,-20.97,164.7,71.76,54,4,4.7,clear sky
162,Sakakah,SA,29.97,40.21,91.4,9,0,6.93,clear sky
163,Talnakh,RU,69.49,88.4,44.6,100,90,11.18,fog
164,Oksfjord,NO,70.24,22.35,37.99,93,85,6.93,overcast clouds
165,Conakry,GN,9.54,-13.68,78.44,85,100,14.52,moderate rain
166,Tazovskiy,RU,67.47,78.7,40.57,91,2,5.68,clear sky
167,Oskemen,KZ,49.96,82.61,50.0,87,0,2.04,clear sky
168,Isangel,VU,-19.55,169.27,71.6,78,90,17.67,overcast clouds
169,Vestmanna,FO,62.16,-7.17,50.0,100,96,10.29,overcast clouds
170,Fortuna,US,40.6,-124.16,73.0,48,20,14.99,few clouds
171,Georgetown,MY,5.41,100.34,78.8,94,20,3.36,few clouds
172,Haag,NL,52.08,4.3,60.01,87,90,11.41,overcast clouds
173,Hailey,US,43.52,-114.32,75.2,19,5,14.99,clear sky
174,Domoni,KM,-12.26,44.53,73.76,72,29,3.47,scattered clouds
175,Along,IN,28.17,94.77,71.53,89,100,0.94,overcast clouds
176,Roald,NO,62.58,6.13,50.0,76,3,10.29,clear sky
177,Eyl,SO,7.98,49.82,78.8,69,99,20.8,overcast clouds
178,Lavrentiya,RU,65.58,-171.0,50.95,71,25,23.51,scattered clouds
179,Cocobeach,GA,1.0,9.58,77.0,88,40,11.41,scattered clouds
180,Nabire,ID,-3.37,135.48,76.23,83,85,2.62,overcast clouds
181,Flinders,AU,-34.58,150.86,64.0,69,12,8.01,few clouds
182,Aljezur,PT,37.32,-8.8,59.0,83,0,1.99,clear sky
183,Avera,US,33.19,-82.53,91.99,55,1,4.7,clear sky
184,Madimba,TZ,-10.4,40.33,69.8,88,20,5.82,few clouds
185,Kovdor,RU,67.57,30.48,43.25,82,69,1.25,broken clouds
186,Sechura,PE,-5.56,-80.82,69.24,64,43,18.97,scattered clouds
187,Kenai,US,60.55,-151.26,61.0,51,75,10.29,broken clouds
188,Rafaela,AR,-31.25,-61.49,57.0,25,76,1.99,broken clouds
189,Micheweni,TZ,-4.97,39.83,75.07,80,98,9.98,overcast clouds
190,Talara,PE,-4.58,-81.27,64.76,79,12,16.17,few clouds
191,Ancud,CL,-41.87,-73.82,48.99,84,90,1.99,overcast clouds
192,Balakovo,RU,52.03,47.8,62.15,62,88,2.48,overcast clouds
193,Salalah,OM,17.02,54.09,77.0,100,90,2.24,overcast clouds
194,Kemijarvi,FI,66.71,27.43,45.41,78,81,1.41,broken clouds
195,Brokopondo,SR,4.75,-55.17,85.53,65,36,3.65,scattered clouds
196,Zyryanovsk,KZ,49.74,84.27,49.68,75,0,1.9,clear sky
197,Antri,IN,26.06,78.21,75.56,87,0,6.62,clear sky
198,Manggar,ID,-2.88,108.27,81.54,79,79,14.34,broken clouds
199,Wajima,JP,37.4,136.9,78.37,83,73,8.1,broken clouds
200,Poya,NC,-21.35,165.15,69.62,57,7,4.59,clear sky
201,Caxito,AO,-8.58,13.66,69.8,83,40,5.82,scattered clouds
202,Farafangana,MG,-22.82,47.83,68.27,89,4,7.49,light rain
203,Bagdarin,RU,54.43,113.6,46.08,88,81,2.37,broken clouds
204,Dromolaxia,CY,34.88,33.59,88.0,28,0,5.82,clear sky
205,Pudozh,RU,61.81,36.53,44.24,94,44,3.33,scattered clouds
206,Kyshtovka,RU,56.55,76.63,56.35,90,67,6.26,broken clouds
207,Sandpoint,US,48.28,-116.55,75.99,17,1,8.05,clear sky
208,Oranjemund,NA,-28.55,16.43,51.04,56,23,16.78,few clouds
209,Seddon,AU,-37.81,144.89,48.0,87,40,9.17,scattered clouds
210,Thinadhoo,MV,0.53,72.93,82.31,74,98,10.04,overcast clouds
211,Meulaboh,ID,4.14,96.13,76.64,87,100,4.38,light rain
212,Ilulissat,GL,69.22,-51.1,44.01,61,0,6.85,clear sky
213,Cidreira,BR,-30.18,-50.21,56.01,91,100,11.68,light rain
214,Saint-Philippe,RE,-21.36,55.77,69.8,68,35,5.82,light rain
215,Atar,MR,20.52,-13.05,93.2,16,1,8.12,clear sky
216,Labuan,MY,5.28,115.24,80.6,88,20,2.24,thunderstorm
217,Bauchi,NG,10.5,10.0,71.69,91,91,1.57,moderate rain
218,Udachnyy,RU,66.42,112.4,46.4,75,90,4.47,light intensity shower rain
219,Filadelfia,US,39.95,-75.16,80.6,39,75,11.41,broken clouds
220,Hami,CN,42.8,93.45,66.94,26,0,8.95,clear sky
221,Jablah,SY,35.36,35.93,73.4,64,0,4.7,clear sky
222,Truckee,US,39.33,-120.18,86.0,13,20,14.99,smoke
223,Monastyryshche,UA,48.99,29.8,69.04,44,0,9.66,clear sky
224,Pisco,PE,-13.7,-76.22,64.0,77,88,9.17,overcast clouds
225,Evensk,RU,61.95,159.23,52.77,55,3,4.47,clear sky
226,Riverton,US,40.52,-111.94,87.01,19,1,19.46,clear sky
227,Srikakulam,IN,18.3,83.9,81.01,85,97,3.85,light rain
228,Kapaa,US,22.08,-159.32,82.4,61,20,14.99,few clouds
229,Laguna,US,38.42,-121.42,95.0,27,1,8.05,haze
230,Shu,KZ,43.6,73.76,68.0,53,0,4.0,clear sky
231,Ampanihy,MG,-24.7,44.75,75.16,55,98,1.72,overcast clouds
232,Mandalgovi,MN,45.76,106.27,49.96,82,77,11.54,broken clouds
233,Kununurra,AU,-15.77,128.73,60.8,24,0,1.12,clear sky
234,Samana,DO,19.21,-69.34,84.2,79,20,4.7,few clouds
235,Port-Gentil,GA,-0.72,8.78,77.0,83,75,15.23,broken clouds
236,Ambilobe,MG,-13.2,49.05,66.99,89,0,4.29,clear sky
237,Itoman,JP,26.12,127.67,84.2,83,75,18.34,shower rain
238,Shahrud,IR,36.42,54.98,55.09,67,0,5.75,clear sky
239,Chilca,PE,-12.52,-76.74,62.6,77,90,8.05,overcast clouds
240,Lukovetskiy,RU,64.3,41.92,48.2,93,40,4.47,scattered clouds
241,Saint-Pierre,RE,-21.34,55.48,68.0,68,11,5.82,few clouds
242,Moussoro,TD,13.64,16.49,83.57,64,74,7.81,broken clouds
243,Alofi,NU,-19.06,-169.92,80.6,69,75,11.41,broken clouds
244,Trelew,AR,-43.25,-65.31,46.56,55,25,16.35,scattered clouds
245,Sobolevo,RU,54.43,31.9,64.96,86,0,11.07,moderate rain
246,Panchgani,IN,17.92,73.82,64.17,100,94,4.88,overcast clouds
247,Ipora,BR,-16.44,-51.12,79.21,24,0,0.51,clear sky
248,Tromso,NO,69.65,18.96,42.8,87,90,13.87,overcast clouds
249,Bratslav,UA,48.82,28.94,69.8,56,0,8.95,clear sky
250,Wexford,IE,52.33,-6.46,51.01,86,68,4.81,broken clouds
251,Gazojak,TM,41.19,61.4,74.32,20,99,9.44,overcast clouds
252,Paris,FR,48.85,2.35,60.01,82,36,9.17,scattered clouds
253,Lowestoft,GB,52.48,1.75,55.0,97,96,12.41,overcast clouds
254,Dakar,SN,14.69,-17.44,84.2,79,40,4.7,scattered clouds
255,Carmarthen,GB,51.86,-4.31,55.0,87,93,4.7,overcast clouds
256,Methven,NZ,-43.63,171.65,53.06,61,100,15.14,overcast clouds
257,Lafiagi,NG,8.87,5.42,75.04,90,100,2.26,moderate rain
258,Watertown,US,42.37,-71.18,73.0,35,20,21.92,few clouds
259,Spasskoye,RU,44.61,132.8,58.75,85,100,4.92,overcast clouds
260,Lasa,IT,46.62,10.7,53.01,81,40,3.36,scattered clouds
261,Shingu,JP,33.73,135.98,78.78,78,76,2.26,broken clouds
262,Kieta,PG,-6.22,155.63,84.51,68,60,6.35,broken clouds
263,Repelon,CO,10.49,-75.13,89.6,66,40,5.82,scattered clouds
264,Cloquet,US,46.72,-92.46,71.01,64,40,6.93,scattered clouds
265,Liku,ID,-0.73,119.89,75.79,79,99,3.04,overcast clouds
266,Karaton,ID,-6.34,106.1,80.01,88,20,3.36,haze
267,Noumea,NC,-22.28,166.46,68.0,60,45,2.24,scattered clouds
268,Tema,GH,5.67,-0.02,77.0,88,75,12.75,broken clouds
269,Katsuura,JP,35.13,140.3,84.0,89,84,1.01,broken clouds
270,Grimmen,DE,54.11,13.04,63.0,93,40,5.82,scattered clouds
271,Sitka,US,57.05,-135.33,53.6,93,90,9.17,mist
272,Rudbar,AF,30.15,62.6,71.98,22,0,11.54,clear sky
273,Boyolangu,ID,-8.12,111.89,71.51,87,84,5.19,broken clouds
274,Longyearbyen,SJ,78.22,15.64,39.2,80,75,8.05,shower rain
275,Sudislavl,RU,57.88,41.71,58.87,97,98,2.19,light rain
276,Goba,ET,7.02,39.98,50.11,82,73,4.56,broken clouds
277,Buin,CL,-33.73,-70.75,63.0,58,0,5.82,clear sky
278,Kiama,AU,-34.68,150.87,64.99,51,14,8.99,few clouds
279,Wattegama,LK,6.8,81.48,77.0,100,40,3.36,scattered clouds
280,Eyemouth,GB,55.87,-2.09,48.99,76,7,3.94,clear sky
281,Gillette,US,44.29,-105.5,63.0,39,90,31.09,overcast clouds
282,Tarko-Sale,RU,64.92,77.78,46.99,90,9,5.66,clear sky
283,Shumskiy,RU,54.83,99.13,50.0,85,61,2.75,broken clouds
284,Biak,ID,-0.91,122.88,76.84,81,91,7.56,overcast clouds
285,Sotouboua,TG,8.57,0.98,72.25,92,100,0.56,light rain
286,Kralendijk,BQ,12.15,-68.27,84.2,74,100,8.05,overcast clouds
287,Havelock,US,34.88,-76.9,84.99,66,42,1.01,light rain
288,Ajaccio,FR,42.0,8.92,66.2,77,96,4.7,overcast clouds
289,Adrar,MR,20.5,-10.07,92.57,13,88,13.13,overcast clouds
290,Sayansk,RU,54.11,102.16,46.47,96,23,3.02,few clouds
291,Obo,CF,5.4,26.49,69.91,93,100,1.32,overcast clouds
292,Pierre,US,44.37,-100.35,84.2,42,1,34.45,clear sky
293,Irricana,CA,51.32,-113.6,66.99,30,23,1.99,few clouds
294,Christchurch,NZ,-43.53,172.63,51.8,71,79,2.24,broken clouds
295,Mackay,AU,-21.15,149.2,62.6,88,40,5.82,scattered clouds
296,Ixtapa,MX,20.7,-105.2,84.2,79,90,9.17,overcast clouds
297,Ukiah,US,39.15,-123.21,96.8,23,1,8.03,haze
298,Santa Rosa,US,34.68,-80.78,88.0,55,1,5.82,clear sky
299,Naryan-Mar,RU,67.67,53.09,50.5,98,100,3.65,light rain
300,Zorgo,BF,12.25,-0.62,76.01,87,100,8.77,light rain
301,Arklow,IE,52.79,-6.14,46.0,94,90,5.41,overcast clouds
302,Tartagal,AR,-22.52,-63.8,60.42,44,100,6.71,overcast clouds
303,Sotik,KE,-0.68,35.12,55.26,92,32,1.88,scattered clouds
304,Buluang,PH,13.31,123.34,79.57,87,99,7.67,light rain
305,Esperance,AU,-33.87,121.9,41.0,93,0,11.41,clear sky
306,Kruisfontein,ZA,-34.0,24.73,46.0,81,23,1.01,few clouds
307,Huarmey,PE,-10.07,-78.15,65.5,71,2,10.71,clear sky
308,Atasu,KZ,48.68,71.64,64.02,47,0,8.59,clear sky
309,Yanji,CN,42.91,129.51,63.43,89,99,3.69,overcast clouds
310,Leeton,AU,-34.57,146.4,44.01,93,2,8.05,clear sky
311,Disraeli,CA,45.9,-71.35,55.99,77,53,5.01,broken clouds
312,Hofn,IS,64.25,-15.21,51.67,88,97,16.67,overcast clouds
313,Havre-Saint-Pierre,CA,50.23,-63.6,50.0,87,90,13.87,light rain
314,Yerbogachen,RU,61.28,108.01,47.97,88,54,4.03,broken clouds
315,Nantucket,US,41.28,-70.1,73.4,53,1,5.82,clear sky
316,Yar-Sale,RU,66.83,70.83,39.13,92,85,9.31,overcast clouds
317,Russell,US,32.35,-85.2,89.6,78,75,19.46,thunderstorm
318,Chicama,PE,-7.84,-79.15,67.5,65,26,9.1,scattered clouds
319,Temiscaming,CA,46.72,-79.1,64.99,59,75,8.05,broken clouds
320,Najran,SA,17.49,44.13,80.6,22,95,5.57,overcast clouds
321,Asau,RO,46.43,26.4,64.99,79,0,4.92,clear sky
322,Egvekinot,RU,66.32,-179.17,42.17,73,59,21.3,broken clouds
323,Kousseri,CM,12.08,15.03,77.0,88,20,6.93,thunderstorm
324,Rudnogorsk,RU,57.26,103.75,51.85,82,86,3.4,overcast clouds
325,Batagay,RU,67.63,134.63,50.88,52,78,2.39,broken clouds
326,Kavaratti,IN,10.57,72.64,81.93,78,84,10.87,broken clouds
327,Dorgos,RO,46.05,21.83,75.2,57,0,8.05,clear sky
328,Niquero,CU,20.04,-77.58,84.79,75,46,5.21,scattered clouds
329,Dalvik,IS,65.97,-18.53,51.8,81,90,13.87,light intensity drizzle
330,Manta,EC,-0.95,-80.73,80.6,74,20,13.87,few clouds
331,Jalu,LY,29.03,21.55,83.25,32,0,10.58,clear sky
332,Pumiao,CN,22.75,108.48,80.6,88,0,2.24,clear sky
333,Scarborough,GB,54.28,-0.4,46.99,88,23,6.33,few clouds
334,Yenagoa,NG,4.92,6.26,74.71,93,100,3.8,light rain
335,Bairiki,KI,1.33,172.98,86.0,66,20,8.05,few clouds
336,Babaeski,TR,41.43,27.09,71.87,77,0,2.35,clear sky
337,Riyadh,SA,24.69,46.72,82.4,26,25,4.0,scattered clouds
338,Lorengau,PG,-2.02,147.27,82.35,82,6,11.36,light rain
339,Igarka,RU,67.47,86.58,44.49,95,2,9.91,clear sky
340,Kirakira,SB,-10.45,161.92,83.48,75,100,13.0,overcast clouds
341,Altay,CN,47.87,88.12,53.58,56,0,2.42,clear sky
342,Caravelas,BR,-17.71,-39.25,71.92,88,0,5.46,clear sky
343,Loubomo,CG,-4.2,12.67,70.23,85,30,6.15,scattered clouds
344,Tacuarembo,UY,-31.73,-55.98,46.27,74,24,7.07,few clouds
345,Eureka,US,40.8,-124.16,75.99,43,1,13.87,clear sky
346,Muros,ES,42.78,-9.06,59.0,73,49,1.01,scattered clouds
347,Khani,GE,41.96,42.96,64.4,100,0,1.12,clear sky
348,Mazagao,BR,-0.12,-51.29,80.6,100,75,4.7,broken clouds
349,Skelleftea,SE,64.75,20.95,51.8,87,96,5.82,overcast clouds
350,Ankazoabo,MG,-22.28,44.52,67.55,64,7,6.04,clear sky
351,Shache,CN,38.42,77.24,61.95,39,70,5.95,broken clouds
352,Ojinaga,MX,29.57,-104.42,105.8,14,1,3.36,clear sky
353,Gonc,HU,48.47,21.28,75.2,60,39,4.7,scattered clouds
354,Vanavara,RU,60.34,102.28,46.71,94,2,3.22,clear sky
355,Torrington,US,41.8,-73.12,71.01,59,0,5.99,clear sky
356,Tateyama,JP,34.98,139.87,84.99,93,89,2.28,overcast clouds
357,Pafos,CY,34.77,32.42,73.0,52,0,9.19,clear sky
358,Galeana,MX,24.83,-100.07,80.15,49,8,9.53,light rain
359,Hidalgotitlan,MX,17.78,-94.63,95.0,50,5,11.41,clear sky
360,Raudeberg,NO,61.99,5.14,51.01,78,0,12.71,clear sky
361,Tiznit,MA,29.58,-9.5,78.08,39,0,2.08,clear sky
362,Gitega,BI,-3.5,29.95,62.31,67,2,1.9,clear sky
363,Namie,JP,37.48,141.0,77.0,89,100,8.25,moderate rain
364,Athabasca,CA,54.72,-113.29,56.71,45,35,19.62,scattered clouds
365,Washington,US,47.5,-120.5,80.01,21,0,1.01,clear sky
366,Xingyi,CN,24.19,102.82,60.96,96,100,0.4,moderate rain
367,Axim,GH,4.87,-2.24,74.66,87,100,8.14,overcast clouds
368,Saint-Augustin,CA,51.23,-58.65,54.54,72,61,22.93,broken clouds
369,Winnemucca,US,40.97,-117.74,87.8,8,1,9.17,clear sky
370,Kurchum,KZ,48.57,83.65,58.26,55,0,3.31,clear sky
371,Mezen,RU,65.85,44.24,48.67,94,100,8.77,light rain
372,Esmeraldas,BR,-19.76,-44.31,77.0,47,32,9.17,scattered clouds
373,Steinbach,DE,50.17,8.57,61.0,93,20,8.05,few clouds
374,Nadym,RU,65.53,72.52,42.94,81,89,12.3,overcast clouds
375,Marathon,US,44.9,-89.77,73.0,43,20,8.28,few clouds
376,Kodiak,US,57.79,-152.41,53.71,92,100,20.6,light rain
377,Gubbi,IN,13.31,76.94,69.94,89,16,4.27,light rain
378,Ornskoldsvik,SE,63.29,18.72,50.0,93,100,6.93,moderate rain
379,Bartoszyce,PL,54.25,20.81,57.07,94,100,6.58,moderate rain
380,Namibe,AO,-15.2,12.15,62.24,69,9,6.49,clear sky
381,Luderitz,NA,-26.65,15.16,56.77,37,48,20.74,scattered clouds
382,Bilgoraj,PL,50.54,22.72,79.0,75,48,11.25,scattered clouds
383,Nouakchott,MR,18.09,-15.98,84.2,66,27,11.41,scattered clouds
384,Nicoya,CR,10.15,-85.45,78.8,94,40,12.75,scattered clouds
385,Inhambane,MZ,-23.86,35.38,70.97,85,98,15.17,overcast clouds
386,Kijang,KR,35.24,129.21,78.8,78,75,10.29,broken clouds
387,Zhanakorgan,KZ,43.91,67.25,75.24,25,0,13.94,clear sky
388,Kayerkan,RU,69.35,87.76,44.6,100,90,11.18,fog
389,Quelimane,MZ,-17.88,36.89,75.2,83,0,3.36,clear sky
390,Francistown,BW,-21.17,27.51,65.39,50,100,8.28,overcast clouds
391,Aksu,CN,41.12,80.26,67.35,49,3,3.31,clear sky
392,Gamay,PH,12.39,125.3,79.61,86,97,7.74,light rain
393,Yulara,AU,-25.24,130.99,53.6,58,0,6.93,clear sky
394,Bandarbeyla,SO,9.49,50.81,76.51,79,100,20.69,overcast clouds
395,Grindavik,IS,63.84,-22.43,51.8,100,90,32.21,moderate rain
396,Dabhoi,IN,22.18,73.43,76.53,91,93,12.48,moderate rain
397,Fort-Shevchenko,KZ,44.51,50.26,74.59,71,0,15.97,clear sky
398,Varangaon,IN,21.02,75.9,73.53,90,3,5.66,clear sky
399,Pangai,TO,-19.8,-174.35,80.6,78,75,11.41,broken clouds
400,Penzance,GB,50.12,-5.54,53.01,76,99,8.05,overcast clouds
401,Martinez,US,38.02,-122.13,89.01,37,1,10.29,clear sky
402,Bonthe,SL,7.53,-12.51,76.64,85,100,12.48,light rain
403,Baoying,CN,33.23,119.31,75.72,97,5,3.98,light rain
404,Ryazan,RU,54.62,39.74,68.0,57,0,4.0,clear sky
405,Mehran,IR,33.12,46.16,77.0,20,0,4.7,clear sky
406,Chai Nat,TH,15.19,100.12,78.28,89,100,5.06,overcast clouds
407,Erdaojiang,CN,41.78,126.03,64.94,86,87,2.48,overcast clouds
408,Leningradskiy,RU,69.38,178.42,35.98,92,100,5.19,overcast clouds
409,Nimaparha,IN,20.07,86.02,82.4,94,20,5.82,haze
410,Arman,RU,59.7,150.17,53.55,51,1,2.33,clear sky
411,Bambanglipuro,ID,-7.95,110.28,73.2,83,65,8.75,broken clouds
412,Ericeira,PT,38.96,-9.42,64.99,70,34,1.01,scattered clouds
413,Vardo,NO,70.37,31.11,44.6,81,20,4.7,few clouds
414,Blagoyevo,RU,63.37,47.92,47.05,93,91,6.24,overcast clouds
415,Edd,ER,13.93,41.69,92.37,53,95,5.68,overcast clouds
416,Pascagoula,US,30.37,-88.56,87.8,70,75,10.45,broken clouds
417,Gaoyou,CN,32.79,119.43,81.0,90,76,3.91,light rain
418,Kiunga,PG,-6.12,141.29,74.39,96,93,1.95,overcast clouds
419,Zabol,AF,32.25,67.25,66.09,24,0,4.83,clear sky
420,Bafq,IR,31.61,55.41,67.64,27,0,1.95,clear sky
421,Itatiba,BR,-23.01,-46.84,84.2,28,0,8.05,clear sky
422,Imbituba,BR,-28.24,-48.67,66.2,72,40,21.92,scattered clouds
423,Boguchany,RU,58.38,97.45,48.36,92,3,2.24,clear sky
424,Westport,US,41.14,-73.36,78.01,54,5,9.55,clear sky
425,Fairbanks,US,64.84,-147.72,64.0,39,1,8.05,clear sky
426,Swakopmund,NA,-22.68,14.53,53.01,76,0,5.82,clear sky
427,Muyezerskiy,RU,63.93,31.65,46.98,79,66,1.21,broken clouds
428,Yuxia,CN,34.06,108.63,70.0,93,90,8.95,overcast clouds
429,Bajil,YE,15.06,43.29,89.37,52,64,6.98,broken clouds
430,Lagoa,PT,39.05,-27.98,74.5,95,31,11.1,scattered clouds
431,Mantua,IT,45.17,10.78,66.0,76,88,3.0,overcast clouds
432,Coari,BR,-4.08,-63.14,83.28,66,87,2.15,light rain
433,Ejido,VE,8.55,-71.24,70.38,66,100,2.77,moderate rain
434,Tatarsk,RU,55.22,75.98,58.98,86,0,7.11,clear sky
435,Cuiluan,CN,47.72,128.65,54.16,94,100,4.41,light rain
436,Clonakilty,IE,51.62,-8.87,48.2,81,40,3.36,scattered clouds
437,Alyangula,AU,-13.85,136.42,80.6,65,90,8.05,overcast clouds
438,Brae,GB,60.4,-1.35,46.4,87,99,6.93,overcast clouds
439,Pampa,US,35.54,-100.96,93.2,36,1,11.41,clear sky
440,Alexandria,EG,31.22,29.96,80.6,83,40,6.93,scattered clouds
441,Clearwater,US,27.97,-82.8,78.8,100,75,5.82,heavy intensity rain
442,Doha,QA,25.29,51.53,95.0,67,29,3.36,scattered clouds
443,Vanimo,PG,-2.67,141.3,79.36,80,96,3.74,overcast clouds
444,Rantepao,ID,-2.97,119.9,64.35,85,88,1.34,overcast clouds
445,Trincomalee,LK,8.57,81.23,79.72,82,98,14.97,overcast clouds
446,Buraydah,SA,26.33,43.98,89.6,19,0,8.05,clear sky
447,Galle,LK,6.04,80.22,80.49,82,85,11.95,light rain
448,Zhezkazgan,KZ,47.8,67.71,66.2,39,0,11.18,clear sky
449,Andenes,NO,69.31,16.12,39.2,86,82,6.93,light rain
450,Kaniama,CD,-7.57,24.18,72.21,73,11,2.51,few clouds
451,Tukrah,LY,32.53,20.58,75.83,75,0,11.56,clear sky
452,Lerwick,GB,60.15,-1.15,46.4,87,100,5.82,overcast clouds
453,Aracati,BR,-4.56,-37.77,78.64,72,0,12.35,clear sky
454,Dunedin,NZ,-45.87,170.5,55.99,48,100,4.0,overcast clouds
455,Dingle,PH,11.0,122.67,76.98,89,86,5.55,overcast clouds
456,Tongren,CN,27.72,109.19,70.43,86,0,2.26,clear sky
457,Pangnirtung,CA,66.15,-65.71,55.0,42,39,3.42,scattered clouds
458,Timmins,CA,48.47,-81.33,55.4,66,75,4.7,broken clouds
459,Yining,CN,29.04,114.56,74.62,82,45,1.14,scattered clouds
460,Luziania,BR,-16.25,-47.95,84.2,26,100,8.05,overcast clouds
461,Kutum,SD,14.2,24.67,77.77,57,67,4.41,broken clouds
462,Zapolyarnyy,RU,69.42,30.81,46.4,93,75,10.29,broken clouds
463,Eydhafushi,MV,5.1,73.07,82.62,73,98,8.32,light rain
464,Matara,LK,5.95,80.54,79.54,84,77,10.96,moderate rain
465,Suzhou,CN,31.31,120.62,82.0,90,9,4.85,clear sky
466,Linda,US,39.13,-121.55,89.6,35,1,5.82,haze
467,Baiquan,CN,47.58,126.08,57.43,96,100,14.0,moderate rain
468,Sydney,AU,-33.87,151.21,64.99,55,14,13.87,few clouds
469,Jacareacanga,BR,-6.22,-57.75,79.52,64,31,1.81,scattered clouds
470,At-Bashi,KG,41.17,75.81,52.9,54,0,4.34,clear sky
471,Okhotsk,RU,59.38,143.3,56.77,77,100,15.64,overcast clouds
472,Shuyskoye,RU,59.37,41.03,52.77,97,100,1.43,overcast clouds
473,Ranong,TH,9.97,98.63,80.17,79,84,3.8,broken clouds
474,Sola,VU,-13.88,167.55,82.4,78,75,9.17,broken clouds
475,Bath,GB,51.38,-2.36,52.0,77,100,2.82,overcast clouds
476,Bilma,NE,18.69,12.92,89.69,40,20,2.91,light rain
477,Iskateley,RU,67.68,53.15,50.43,98,100,3.85,light rain
478,Aksehir,TR,38.36,31.42,69.53,24,0,2.46,clear sky
479,Poum,NC,-20.23,164.02,69.1,68,1,7.52,clear sky
480,Bandar,ID,2.05,99.75,72.37,94,100,1.9,moderate rain
481,Rairangpur,IN,22.27,86.18,76.82,84,100,4.34,overcast clouds
482,Champasak,LA,14.75,106.0,72.48,97,96,2.3,overcast clouds
483,Itacare,BR,-14.28,-39.0,72.93,86,0,5.61,clear sky
484,Pathein,MM,16.78,94.73,78.49,92,100,5.44,overcast clouds
485,Ahuimanu,US,21.44,-157.84,87.8,61,75,16.11,broken clouds
486,Padang,ID,-0.95,100.35,77.23,80,100,4.76,overcast clouds
487,Aasiaat,GL,68.71,-52.87,42.31,73,0,6.69,clear sky
488,Goderich,CA,43.75,-81.72,69.01,71,16,10.0,few clouds
489,Bayan,CN,46.08,127.4,58.59,90,100,12.26,overcast clouds
490,Mitsamiouli,KM,-11.38,43.28,76.15,66,0,3.58,clear sky
491,Mabaruma,GY,8.2,-59.78,78.62,94,99,3.06,overcast clouds
492,College,US,64.86,-147.8,64.0,45,20,5.82,few clouds
493,Paray-Le-Monial,FR,46.45,4.12,57.99,87,38,1.12,scattered clouds
494,Viedma,AR,-40.81,-63.0,46.51,65,0,9.06,clear sky
495,Wamba,NG,8.93,8.6,72.3,93,99,3.15,light rain
496,Karratha,AU,-20.74,116.85,69.8,45,1,1.77,clear sky
497,Sayan,PE,-11.14,-77.19,69.69,46,18,5.79,few clouds
498,Daru,PG,-9.08,143.21,77.9,87,98,19.6,light rain
499,Ipira,BR,-12.16,-39.74,72.81,72,14,13.96,few clouds
500,Broome,US,42.25,-75.83,71.01,48,1,10.29,clear sky
501,Kalabo,ZM,-14.97,22.68,70.83,56,94,5.21,overcast clouds
502,Maraa,BR,-1.83,-65.37,77.23,82,94,3.38,overcast clouds
503,Ulu-Telyak,RU,54.91,56.97,56.93,94,100,1.99,overcast clouds
504,Tilichiki,RU,60.47,166.1,50.56,70,98,15.48,overcast clouds
505,Balabac,PH,7.99,117.06,81.41,73,94,1.92,overcast clouds
506,Jaguaribe,BR,-5.89,-38.62,87.51,31,60,12.06,broken clouds
507,Newport,GB,51.59,-3.0,54.0,80,100,4.97,overcast clouds
508,Sucua,EC,-2.47,-78.17,69.8,88,40,4.7,shower rain
509,Maceio,BR,-9.67,-35.74,73.4,94,90,9.17,light rain
510,Belmonte,BR,-15.86,-38.88,75.2,78,40,9.17,scattered clouds
511,Japura,ID,-0.32,102.35,73.44,96,99,2.62,overcast clouds
512,Kenora,CA,49.82,-94.43,64.4,82,90,11.41,shower rain
513,Groningen,NL,53.25,6.75,61.0,87,75,8.05,light rain
514,Nagutskoye,RU,44.44,42.88,66.2,52,0,8.95,clear sky
515,Baruun-Urt,MN,46.68,113.28,47.3,96,34,5.84,scattered clouds
516,Mackenzie,CA,55.3,-123.17,55.4,62,20,8.05,few clouds
517,Pemangkat,ID,1.17,108.97,77.59,87,91,3.58,moderate rain
518,Zhigansk,RU,66.77,123.37,48.38,94,100,8.41,overcast clouds
519,Ouegoa,NC,-20.35,164.43,71.15,62,1,10.78,clear sky
520,Sawakin,SD,19.11,37.33,91.89,40,100,9.06,overcast clouds
521,Kabwe,ZM,-14.45,28.45,67.14,26,0,5.64,clear sky
522,Negara,ID,-8.32,114.6,73.13,84,100,8.1,overcast clouds
523,Rio Grande,BR,-0.92,-48.06,80.6,78,20,4.7,few clouds
524,Macenta,GN,8.54,-9.47,69.01,97,74,2.26,light rain
525,Kemin,KG,42.78,75.69,63.68,41,0,5.01,clear sky
526,Tura,IN,25.52,90.22,75.06,92,100,4.38,overcast clouds
527,Atbasar,KZ,51.8,68.33,66.45,48,9,5.21,clear sky
528,Camocim,BR,-2.9,-40.84,80.87,66,61,19.17,broken clouds
529,Salinas,US,36.68,-121.66,73.99,68,1,13.87,clear sky
